[
    {
        "id": "store1",
        "name": "Starbucks - Celebration Mall",
        "address": "Ground Floor, Celebration Mall, Bhuwana",
        "city": "Udaipur, Rajasthan",
        "lat": 24.6084,
        "lng": 73.7084,
        "open": true
    },
    {
        "id": "store2",
        "name": "Starbucks - Fateh Sagar Lake",
        "address": "Shop 42, Lake View Road, Near Fateh Sagar",
        "city": "Udaipur, Rajasthan",
        "lat": 24.6000,
        "lng": 73.6800,
        "open": true
    },
    {
        "id": "store3",
        "name": "Starbucks - The Oberoi Udaivilas",
        "address": "Lobby Level, The Oberoi Udaivilas",
        "city": "Udaipur, Rajasthan",
        "lat": 24.5760,
        "lng": 73.6759,
        "open": false
    },
    {
        "id": "store4",
        "name": "Starbucks - City Palace",
        "address": "Old City, Near Jagdish Temple",
        "city": "Udaipur, Rajasthan",
        "lat": 24.5760,
        "lng": 73.6830,
        "open": true
    }
]